City,Lat,Lng,Max Temp,Humidity,Cloudiness,Wind Speed,Country,Date
albany,42.6001,-73.9662,49.68,68,97,5.59,US,1635032133
punta arenas,-53.15,-70.9167,35.71,87,90,27.63,CL,1635031999
haines junction,60.7522,-137.5108,39.15,70,71,0.0,CA,1635032068
maloy,61.9353,5.1136,49.73,80,100,13.0,NO,1635032146
saint-philippe,-21.3585,55.7679,72.99,84,58,11.81,RE,1635032014
gayny,60.3071,54.3241,39.34,76,83,6.64,RU,1635032148
rikitea,-23.1203,-134.9692,75.0,82,98,18.97,PF,1635031925
namatanai,-3.6667,152.4333,85.78,66,37,6.98,PG,1635032149
saint-pierre,-21.3393,55.4781,73.08,81,40,6.91,RE,1635032150
changping,40.2186,116.2197,41.52,51,2,2.1,CN,1635032151
busselton,-33.65,115.3333,61.86,66,95,4.76,AU,1635032152
whitehorse,60.7161,-135.0538,44.02,60,75,8.99,CA,1635032153
victoria,22.2855,114.1577,70.25,79,87,4.0,HK,1635031882
hermanus,-34.4187,19.2345,56.89,70,31,2.77,ZA,1635032155
diego de almagro,-26.3667,-70.05,57.63,47,0,4.68,CL,1635032156
chuy,-33.6971,-53.4616,56.82,87,93,7.18,UY,1635032157
lebu,-37.6167,-73.65,50.58,92,14,8.34,CL,1635032157
isangel,-19.55,169.2667,80.71,78,75,9.22,VU,1635032007
faanui,-16.4833,-151.75,76.68,85,86,11.86,PF,1635032160
mogadishu,2.0371,45.3438,78.53,84,4,9.8,SO,1635032160
longyearbyen,78.2186,15.6401,19.24,73,20,4.61,SJ,1635032161
bengkulu,-3.8004,102.2655,77.2,85,57,2.59,ID,1635032163
bambous virieux,-20.3428,57.7575,73.65,83,40,11.5,MU,1635032163
tuktoyaktuk,69.4541,-133.0374,30.2,86,90,9.22,CA,1635032164
labytnangi,66.6572,66.4183,26.76,85,100,14.38,RU,1635032165
westport,41.1415,-73.3579,58.78,77,90,1.01,US,1635032137
port elizabeth,-33.918,25.5701,57.49,82,40,19.57,ZA,1635032167
sept-iles,50.2001,-66.3821,46.92,100,90,8.05,CA,1635032003
acapulco,16.8634,-99.8901,73.22,94,90,13.8,MX,1635032061
port alfred,-33.5906,26.891,58.08,67,7,15.41,ZA,1635032169
fortuna,40.5982,-124.1573,64.09,77,20,7.0,US,1635032170
omsukchan,62.5333,155.8,2.3,90,81,2.3,RU,1635032171
la rioja,42.25,-2.5,41.49,51,0,6.31,ES,1635032172
ballina,-28.8667,153.5667,82.58,46,39,20.71,AU,1635032173
ushuaia,-54.8,-68.3,33.46,93,75,23.02,AR,1635032175
sao filipe,14.8961,-24.4956,79.2,69,9,8.48,CV,1635032177
moses lake,47.1301,-119.2781,57.88,62,90,11.5,US,1635032178
bethel,41.3712,-73.414,55.76,72,90,3.44,US,1635032082
kavaratti,10.5669,72.642,80.55,78,83,2.06,IN,1635032180
hilo,19.7297,-155.09,84.27,67,75,6.91,US,1635032090
bluff,-46.6,168.3333,52.05,95,100,2.24,NZ,1635032181
chapais,49.7834,-74.8492,33.58,84,100,0.92,CA,1635032182
samarai,-10.6167,150.6667,80.85,82,66,11.72,PG,1635032183
podolinec,49.2587,20.536,40.91,75,80,7.96,SK,1635032184
bima,-8.4667,118.7167,86.32,59,41,2.82,ID,1635032185
husavik,66.0449,-17.3389,33.71,96,99,4.59,IS,1635032186
nome,64.5011,-165.4064,34.16,69,1,4.61,US,1635032186
idil,37.3411,41.8895,60.17,23,0,5.39,TR,1635032187
cabra,37.4725,-4.4421,58.89,83,31,4.21,ES,1635032188
dikson,73.5069,80.5464,7.92,87,99,13.02,RU,1635032008
zhangye,38.9342,100.4517,42.73,56,90,5.7,CN,1635032190
barabai,-2.5833,115.3833,79.7,82,99,0.74,ID,1635032190
alyangula,-13.8483,136.4192,85.87,74,75,8.05,AU,1635032191
georgetown,5.4112,100.3354,78.89,88,20,1.99,MY,1635032092
umm lajj,25.0213,37.2685,77.31,64,0,11.07,SA,1635032193
new norfolk,-42.7826,147.0587,52.66,79,100,3.0,AU,1635032193
erenhot,43.6475,111.9767,41.27,45,0,6.26,CN,1635032194
salas,43.4118,-6.2602,57.29,73,63,4.52,ES,1635032195
shahrud,36.4182,54.9763,45.88,27,0,0.49,IR,1635032196
cape town,-33.9258,18.4232,57.11,74,0,1.14,ZA,1635032139
lisakovsk,52.5369,62.4936,49.01,82,100,11.59,KZ,1635032197
emerald,-23.5333,148.1667,86.14,62,40,5.75,AU,1635032198
kodiak,57.79,-152.4072,42.4,93,100,19.22,US,1635031990
muros,42.7762,-9.0603,57.83,94,10,5.03,ES,1635032200
kapaa,22.0752,-159.319,85.98,74,40,5.99,US,1635032201
kaffrine,14.1059,-15.5508,79.02,50,68,4.63,SN,1635032201
winneba,5.3511,-0.6231,77.14,87,96,5.21,GH,1635032202
auce,56.4598,22.9017,36.05,89,53,7.49,LV,1635032203
louis trichardt,-23.0439,29.9032,77.88,26,25,3.36,ZA,1635032204
pringsewu,-5.3582,104.9744,76.68,89,65,0.56,ID,1635032205
lagoa,39.05,-27.9833,65.95,63,20,12.8,PT,1635032206
sur,22.5667,59.5289,79.63,68,0,9.37,OM,1635032207
dunedin,-45.8742,170.5036,56.8,81,100,11.99,NZ,1635032207
kahului,20.8947,-156.47,85.26,67,20,19.57,US,1635032208
hobart,-42.8794,147.3294,53.02,82,75,3.0,AU,1635031945
praia da vitoria,38.7333,-27.0667,66.45,82,75,10.98,PT,1635032142
gombe,10.2897,11.1673,76.14,80,91,3.27,NG,1635032210
arraial do cabo,-22.9661,-42.0278,71.56,88,0,20.71,BR,1635032211
mandalgovi,45.7625,106.2708,35.2,35,58,6.58,MN,1635032212
tura,25.5198,90.2201,64.78,80,38,3.27,IN,1635032213
avarua,-21.2078,-159.775,75.25,57,75,10.36,CK,1635032214
macultepec,18.1667,-92.8333,78.04,88,98,2.55,MX,1635032215
sitka,57.0531,-135.33,46.29,71,75,9.22,US,1635032216
salalah,17.0151,54.0924,73.49,60,0,6.91,OM,1635032217
luderitz,-26.6481,15.1594,56.53,73,0,17.67,NA,1635032217
cherskiy,68.75,161.3,-2.83,100,95,3.94,RU,1635032218
kyzyl-mazhalyk,51.1333,90.6,30.15,81,96,0.76,RU,1635032220
prince rupert,54.3161,-130.3201,47.89,76,97,20.71,CA,1635032221
viedma,-40.8135,-62.9967,46.33,38,11,10.27,AR,1635032221
mosquera,4.7059,-74.2302,59.09,88,75,8.05,CO,1635031973
geraldton,-28.7667,114.6,57.61,94,19,4.61,AU,1635032223
bluefields,12.0137,-83.7635,78.87,94,75,0.0,NI,1635032224
qaanaaq,77.484,-69.3632,-0.27,55,0,8.1,GL,1635032225
labuhan,-6.8844,112.2051,82.0,74,74,6.67,ID,1635032226
vaini,-21.2,-175.2,71.85,66,70,18.61,TO,1635032226
misratah,32.3754,15.0925,78.22,48,100,11.63,LY,1635032227
ararat,39.8317,44.7049,43.14,33,0,2.46,AM,1635032228
alice springs,-23.7,133.8833,72.95,25,55,18.41,AU,1635031982
khandyga,62.6667,135.6,11.95,92,100,4.61,RU,1635032230
vila velha,-20.3297,-40.2925,75.15,83,75,10.36,BR,1635032231
komsomolskiy,40.4272,71.7189,38.62,70,0,5.75,UZ,1635032232
rocha,-34.4833,-54.3333,54.7,97,69,7.61,UY,1635032232
puerto ayora,-0.7393,-90.3518,69.71,86,94,9.08,EC,1635032233
sao felix do xingu,-6.6447,-51.995,74.03,94,100,1.97,BR,1635032234
jamestown,42.097,-79.2353,45.01,95,90,1.99,US,1635032236
paamiut,61.994,-49.6678,31.86,49,77,10.58,GL,1635032237
terrace,54.5163,-128.6035,48.11,76,75,10.36,CA,1635032238
yellowknife,62.456,-114.3525,42.42,84,75,14.97,CA,1635032238
bilibino,68.0546,166.4372,-5.85,98,96,0.72,RU,1635032239
ribeira grande,38.5167,-28.7,67.6,60,22,11.16,PT,1635032240
guerrero negro,27.9769,-114.0611,68.79,70,1,18.41,MX,1635032241
norman wells,65.282,-126.8329,42.84,65,40,4.61,CA,1635032242
mahebourg,-20.4081,57.7,73.69,83,40,11.5,MU,1635032243
iralaya,15.0,-83.2333,80.69,86,84,9.91,HN,1635032244
wichita falls,33.9137,-98.4934,87.06,49,1,5.01,US,1635031982
ginda,30.6945,78.4932,50.14,61,47,4.45,IN,1635032246
yumen,40.2833,97.2,36.86,41,72,6.11,CN,1635032247
muswellbrook,-32.2667,150.9,72.97,36,16,9.6,AU,1635032248
marzuq,14.4,46.4667,67.82,31,20,2.68,YE,1635032250
san luis,-33.295,-66.3356,59.95,26,0,6.46,AR,1635032251
koping,59.514,15.9926,37.89,84,71,4.29,SE,1635032252
saint anthony,45.0205,-93.218,49.62,59,1,3.44,US,1635032253
itarema,-2.9248,-39.9167,80.13,80,71,14.09,BR,1635032254
pouembout,-21.1333,164.9,82.2,53,13,8.48,NC,1635032255
upernavik,72.7868,-56.1549,19.11,83,100,11.86,GL,1635031996
hithadhoo,-0.6,73.0833,82.69,71,80,11.63,MV,1635032256
torbay,47.6666,-52.7314,59.68,97,90,13.8,CA,1635032132
tasiilaq,65.6145,-37.6368,32.16,93,100,7.4,GL,1635032258
maykor,59.0059,55.88,39.0,91,76,8.55,RU,1635032259
asfi,32.2994,-9.2372,62.98,77,1,13.82,MA,1635032259
brookhaven,31.5791,-90.4407,76.66,78,92,5.37,US,1635032260
sitrah,26.1547,50.6206,80.6,65,0,3.0,BH,1635032261
mackay,-21.15,149.2,87.67,69,75,9.22,AU,1635032262
tiksi,71.6872,128.8694,1.42,96,100,9.84,RU,1635032263
mataura,-46.1927,168.8643,56.98,87,100,1.39,NZ,1635032260
sola,-13.8833,167.55,81.48,76,18,17.52,VU,1635032264
klaksvik,62.2266,-6.589,49.12,84,64,11.99,FO,1635032262
pandan,14.0453,124.1694,79.39,85,100,11.72,PH,1635032267
darovskoy,58.77,47.9564,39.52,87,100,4.81,RU,1635032268
jalu,29.0331,21.5482,70.18,38,10,11.9,LY,1635032269
carnarvon,-24.8667,113.6333,69.87,83,0,8.05,AU,1635032264
vostok,46.4856,135.8833,40.12,59,4,5.88,RU,1635032271
saldanha,-33.0117,17.9442,50.05,74,12,6.64,ZA,1635032272
jiazi,22.8779,116.067,67.1,75,84,9.53,CN,1635032273
swan river,52.1058,-101.2676,39.09,70,51,10.36,CA,1635032274
ouallam,14.3188,2.0866,85.24,51,76,10.42,NE,1635032275
pacific grove,36.6177,-121.9166,66.97,78,20,1.01,US,1635032276
talnakh,69.4865,88.3972,21.92,93,99,6.38,RU,1635032277
lata,40.1629,-8.3327,58.82,68,22,2.26,PT,1635032278
troitskoye,52.9821,84.6757,43.52,59,100,21.5,RU,1635032279
port shepstone,-30.7414,30.455,64.11,60,35,24.11,ZA,1635032279
barrow,71.2906,-156.7887,28.42,86,90,13.8,US,1635032008
cidreira,-30.1811,-50.2056,65.28,94,100,8.03,BR,1635032074
avera,33.194,-82.5271,66.7,54,0,3.6,US,1635032272
cap malheureux,-19.9842,57.6142,73.89,75,93,3.0,MU,1635032282
pitimbu,-7.4706,-34.8086,81.19,77,42,13.8,BR,1635032283
majene,-3.5403,118.9707,82.2,75,83,4.21,ID,1635032284
port lincoln,-34.7333,135.8667,59.4,62,5,11.45,AU,1635032262
gat,31.61,34.7642,68.81,100,0,3.02,IL,1635032285
inhambane,-23.865,35.3833,74.07,88,1,15.39,MZ,1635032286
nanortalik,60.1432,-45.2371,35.92,68,31,14.32,GL,1635032269
guisijan,11.0932,122.0461,80.19,80,100,1.92,PH,1635032288
karpathos,35.507,27.2132,67.96,83,3,9.22,GR,1635032289
bredasdorp,-34.5322,20.0403,51.12,82,35,3.44,ZA,1635032256
nikolskoye,59.7035,30.7861,34.88,89,98,9.73,RU,1635032291
keningau,5.3378,116.1602,73.85,92,100,0.89,MY,1635032292
bafoulabe,13.8065,-10.8321,79.25,73,81,2.13,ML,1635032293
atuona,-9.8,-139.0333,78.53,77,18,17.29,PF,1635032255
mao,39.8885,4.2658,63.16,82,0,10.36,ES,1635032295
cozumel,20.5083,-86.9458,84.18,85,75,1.01,MX,1635032296
brooks,50.5834,-111.8851,47.98,79,98,12.66,CA,1635032297
kargasok,59.0556,80.8572,46.89,79,100,18.32,RU,1635032294
hobyo,5.3505,48.5268,78.58,80,30,7.25,SO,1635032286
kabala,9.5833,-11.55,70.54,97,96,2.51,SL,1635032299
qaqortoq,60.7167,-46.0333,34.3,73,36,4.41,GL,1635032300
ivanteyevka,55.9711,37.9208,41.34,95,68,8.63,RU,1635032301
butaritari,3.0707,172.7902,81.21,74,92,8.32,KI,1635032268
mayo,38.8876,-76.5119,62.22,84,45,8.97,US,1635032290
mount gambier,-37.8333,140.7667,53.51,58,90,17.27,AU,1635032031
ucluelet,48.9329,-125.5528,55.71,79,49,1.01,CA,1635032103
abeche,13.8292,20.8324,82.47,20,20,15.05,TD,1635032305
mata,40.683,-7.4592,51.78,59,55,0.29,PT,1635032306
shyroke,47.6917,33.2571,38.44,53,12,6.71,UA,1635032307
olafsvik,64.8945,-23.7142,45.52,88,100,12.17,IS,1635032308
beringovskiy,63.05,179.3167,13.01,73,3,8.01,RU,1635032278
sanming,26.2486,117.6186,56.98,97,100,2.24,CN,1635032310
aklavik,68.2191,-135.0107,30.92,80,75,6.91,CA,1635032311
newton,42.337,-71.2092,54.07,62,40,1.99,US,1635032311
pevek,69.7008,170.3133,11.1,93,100,7.25,RU,1635032286
warri,5.5167,5.75,72.81,96,93,2.71,NG,1635032313
altamira,-3.2033,-52.2064,76.21,89,95,1.97,BR,1635032314
matadi,-5.8167,13.45,77.65,86,99,5.93,CD,1635032314
kholm,59.2667,32.85,34.92,90,99,8.72,RU,1635032315
ostrovnoy,68.0531,39.5131,25.97,92,100,17.52,RU,1635032267
severo-kurilsk,50.6789,156.125,41.04,81,68,12.1,RU,1635032304
nakatsugawa,35.4833,137.5,51.24,54,67,1.54,JP,1635032317
korcula,42.9622,17.1369,52.36,62,100,10.69,HR,1635032318
andros town,24.7,-77.7667,80.56,72,68,6.67,BS,1635032320
oranjemund,-28.55,16.4333,56.25,84,0,13.6,NA,1635032321
kidal,18.4411,1.4078,86.81,30,48,2.75,ML,1635032322
gushikawa,26.3544,127.8686,74.43,79,20,8.05,JP,1635032323
castro,-24.7911,-50.0119,61.23,94,96,3.71,BR,1635032303
kupang,-10.1667,123.5833,81.18,89,20,1.14,ID,1635032325
mbigou,-1.9005,11.906,67.96,99,93,2.57,GA,1635032327
katsuura,35.1333,140.3,61.2,56,60,7.78,JP,1635032314
brunsbuttel,53.9,9.15,46.63,93,97,1.99,DE,1635032328
lithgow,-33.4833,150.15,61.11,33,0,8.5,AU,1635032329
mount isa,-20.7333,139.5,85.77,42,40,1.14,AU,1635032274
ambon,-3.6954,128.1814,80.74,89,40,3.44,ID,1635032331
banfora,10.6333,-4.7667,78.51,72,100,2.1,BF,1635032331
hasaki,35.7333,140.8333,54.28,51,22,5.23,JP,1635032289
cumpas,29.9833,-109.7833,79.92,27,1,13.76,MX,1635032334
tonj,7.2737,28.6822,74.16,76,93,4.32,SS,1635032334
nachingwea,-10.3833,38.7667,69.96,85,48,3.91,TZ,1635032336
carballo,43.213,-8.691,52.56,90,9,4.47,ES,1635032337
rijeka,45.3431,14.4092,53.31,50,0,6.91,HR,1635032338
maldonado,-34.6667,-54.9167,55.22,95,81,5.44,UY,1635032339
shubarkuduk,49.1447,56.4872,45.28,39,5,9.86,KZ,1635032340
magaramkent,41.6159,48.348,51.69,67,0,3.71,RU,1635032341
east london,-33.0153,27.9116,59.9,64,47,18.54,ZA,1635032260
dombarovskiy,50.7587,59.5386,46.29,70,68,11.83,RU,1635032343
itanhem,-17.1664,-40.33,69.87,94,47,6.76,BR,1635032344
sylacauga,33.1732,-86.2516,66.42,84,40,0.0,US,1635032345
atar,20.5169,-13.0499,79.63,17,0,6.4,MR,1635032345
clyde river,70.4692,-68.5914,18.91,81,92,13.51,CA,1635032277
loudi,27.7344,111.9944,54.81,72,0,1.92,CN,1635032347
la ronge,55.1001,-105.2842,37.65,70,75,13.8,CA,1635032167
puerto escondido,15.85,-97.0667,81.43,69,90,3.44,MX,1635032348
spas-klepiki,55.1347,40.1767,37.06,82,10,8.41,RU,1635032349
santa cruz,-17.8,-63.1667,89.06,58,12,24.16,BO,1635032219
saskylakh,71.9167,114.0833,7.36,94,100,15.03,RU,1635032330
burnie,-41.0667,145.9167,56.95,52,44,7.65,AU,1635032351
vao,-22.6667,167.4833,72.39,74,9,13.78,NC,1635032024
hami,42.8,93.45,47.14,47,100,4.16,CN,1635032353
lompoc,34.6391,-120.4579,73.42,69,1,18.41,US,1635032259
cabo san lucas,22.8909,-109.9124,87.1,65,1,18.41,MX,1635032346
souillac,-20.5167,57.5167,73.78,83,40,11.5,MU,1635032267
manoel urbano,-8.8389,-69.2597,83.59,61,100,2.64,BR,1635032356
kholodnyy,62.7167,147.95,-3.26,96,82,0.69,RU,1635032357
belaya gora,68.5333,146.4167,-6.65,90,86,4.99,RU,1635032358
aloleng,16.1307,119.7824,79.81,79,100,9.33,PH,1635032359
torrijos,39.9819,-4.2835,58.84,50,69,2.1,ES,1635032360
ixtapa,20.7,-105.2,87.03,74,75,10.36,MX,1635032361
andilamena,-17.0167,48.5833,65.1,95,58,2.57,MG,1635032362
huarmey,-10.0681,-78.1522,64.47,83,29,10.25,PE,1635032363
peterhead,57.5058,-1.7981,54.12,91,100,29.51,GB,1635032364
niamey,13.5137,2.1098,88.09,48,0,6.91,NE,1635032365
sawtell,-30.3833,153.1,87.19,62,2,8.05,AU,1635032366
gamboma,-1.8764,15.8644,71.62,94,73,2.91,CG,1635032368
rio gallegos,-51.6226,-69.2181,42.85,45,0,25.32,AR,1635032084
smithers,54.7804,-127.1743,48.52,66,40,5.75,CA,1635032369
henties bay,-22.116,14.2845,58.86,93,0,9.19,NA,1635032350
chumikan,54.7183,135.315,38.07,73,55,15.37,RU,1635032370
the valley,18.217,-63.0578,82.54,69,40,10.36,AI,1635032371
christchurch,-43.5333,172.6333,65.95,71,100,1.01,NZ,1635032317
kruisfontein,-34.0033,24.7314,52.72,68,55,8.7,ZA,1635032303
wanning,18.8003,110.3967,71.78,88,97,15.48,CN,1635032317
gavrilovka vtoraya,52.877,42.7663,40.1,76,2,9.84,RU,1635032374
bodmin,50.4715,-4.7243,55.44,76,75,20.71,GB,1635032375
aripuana,-9.1667,-60.6333,81.63,62,95,3.02,BR,1635032376
vilhena,-12.7406,-60.1458,82.62,65,0,9.22,BR,1635032377
seoul,37.5683,126.9778,42.4,94,40,2.3,KR,1635032079
natchitoches,31.7668,-93.1335,83.08,65,40,10.36,US,1635032378
tessalit,20.1986,1.0114,83.43,21,56,8.75,ML,1635032379
srednekolymsk,67.45,153.6833,-6.57,92,37,4.68,RU,1635032380
kysyl-syr,63.8986,122.7617,32.25,98,100,7.9,RU,1635032365
pokhara,28.2333,83.9833,62.38,65,47,4.83,NP,1635032185
honiara,-9.4333,159.95,87.49,59,34,4.14,SB,1635032383
tuatapere,-46.1333,167.6833,54.64,92,100,1.12,NZ,1635032338
hetauda,27.4284,85.0322,74.55,90,39,2.84,NP,1635032384
balabac,7.9868,117.0645,79.09,82,100,5.97,PH,1635032386
magadan,59.5667,150.8,25.21,60,97,9.04,RU,1635032386
anloga,5.7947,0.8973,79.02,77,98,5.1,GH,1635032387
iki-burul,45.8208,44.6472,55.4,46,68,8.72,RU,1635032388
cardston,49.2,-113.3019,50.09,40,80,13.8,CA,1635032390
bilma,18.6853,12.9164,80.47,15,3,6.8,NE,1635032066
mar del plata,-38.0023,-57.5575,54.09,70,40,7.0,AR,1635032210
bakchar,57.0186,82.0711,45.63,87,100,13.98,RU,1635032392
thompson,55.7435,-97.8558,33.96,75,75,3.44,CA,1635032009
kalmunai,7.4167,81.8167,76.95,86,45,3.18,LK,1635032394
kholmskaya,44.846,38.389,53.78,92,100,4.03,RU,1635032395
vaitape,-16.5167,-151.75,76.89,84,84,11.41,PF,1635032396
monroe,43.1501,-77.6831,46.96,80,90,3.44,US,1635032396
yulara,-25.2406,130.9889,71.44,24,40,18.41,AU,1635032312
ndele,8.4109,20.6473,69.31,91,99,2.66,CF,1635032399
kintampo,8.0563,-1.7306,72.61,93,90,4.38,GH,1635032399
punta de bombon,-17.1717,-71.7931,62.19,79,75,7.76,PE,1635032400
volosovo,59.4333,29.4833,32.56,88,68,8.48,RU,1635032402
constantine,36.365,6.6147,58.59,89,65,4.47,DZ,1635032402
lorengau,-2.0226,147.2712,84.45,73,67,10.92,PG,1635032336
zambezi,-13.5432,23.1047,71.22,62,66,1.92,ZM,1635032268
sainte-suzanne,-20.9061,55.6089,73.62,86,75,11.5,RE,1635032405
dong hoi,17.4833,106.6,69.44,91,100,14.74,VN,1635032406
southbridge,42.0751,-72.0334,53.01,71,46,4.09,US,1635032407
marawi,7.9986,124.2928,69.66,76,73,2.89,PH,1635032408
marsh harbour,26.5412,-77.0636,79.81,77,84,11.95,BS,1635032132
outjo,-20.1167,16.15,60.71,18,2,4.83,NA,1635032410
mahibadhoo,3.7833,72.9667,82.2,74,85,14.25,MV,1635032411
korla,41.7597,86.1469,49.37,38,100,4.7,CN,1635032412
susanville,40.4163,-120.653,43.81,88,99,8.01,US,1635032166
kazlu ruda,54.7667,23.5,35.65,86,91,10.74,LT,1635032413
kostyantynivka,48.5277,37.7069,44.87,62,54,4.92,UA,1635032414
eyl,7.9803,49.8164,76.82,80,15,6.87,SO,1635032415
ariquemes,-9.9133,-63.0408,83.1,60,63,2.91,BR,1635032416
champerico,14.3,-91.9167,88.34,82,69,6.98,GT,1635032417
shenjiamen,29.9576,122.298,65.14,66,100,13.35,CN,1635032418
asau,46.4333,26.4,45.39,60,99,1.21,RO,1635032397
manzhouli,49.6,117.4333,36.0,59,8,2.95,CN,1635032419
monrovia,6.3005,-10.7969,77.07,89,99,4.92,LR,1635032345
tadine,-21.55,167.8833,76.32,74,12,14.45,NC,1635032421
karksi-nuia,58.1033,25.5628,34.79,84,100,8.03,EE,1635032423
xuddur,4.1213,43.8894,73.4,84,69,7.87,SO,1635032424
gasa,31.5,34.4667,69.91,60,0,6.31,PS,1635032395
san patricio,28.017,-97.5169,84.29,62,9,13.29,US,1635032285
hyeres,43.1167,6.1167,62.73,76,0,4.61,FR,1635032426
thunder bay,48.4001,-89.3168,43.29,69,40,6.91,CA,1635032427
black river,18.0264,-77.8487,84.2,78,76,6.55,JM,1635032428
mineiros,-17.5694,-52.5511,81.18,52,66,16.49,BR,1635032429
freeport,40.6576,-73.5832,60.26,68,75,3.44,US,1635032274
goundi,9.3627,17.366,73.8,82,76,3.47,TD,1635032430
amapa,1.0,-52.0,77.14,80,91,3.42,BR,1635032431
syracuse,37.0881,15.2792,73.45,89,100,14.38,IT,1635032432
krasnoselkup,65.7,82.4667,32.34,99,100,8.75,RU,1635032320
umm kaddadah,13.6017,26.6876,84.09,21,53,14.63,SD,1635032434
yar-sale,66.8333,70.8333,28.04,95,99,11.01,RU,1635032435
puerto leguizamo,-0.1934,-74.7819,77.7,77,73,3.15,CO,1635032436
surgut,61.25,73.4167,39.38,93,40,15.66,RU,1635032437
baft,29.234,56.6057,47.8,37,0,0.94,IR,1635032438
hofn,64.2539,-15.2082,45.18,77,92,5.95,IS,1635032439
ziarat,30.3823,67.7282,41.36,26,0,0.92,PK,1635032440
ixhuatan,16.3569,-94.4825,79.52,82,73,4.34,MX,1635032441
namibe,-15.1961,12.1522,63.91,75,77,8.03,AO,1635032442
ancud,-41.8697,-73.8203,50.43,75,17,8.9,CL,1635032325
lehigh acres,26.6254,-81.6248,82.38,84,20,1.01,US,1635032443
rawlins,41.7911,-107.2387,43.23,79,90,17.27,US,1635032444
otradnoye,59.7775,30.8181,34.18,89,98,9.62,RU,1635032445
mango,27.9797,-82.3065,82.94,75,1,0.0,US,1635032447
ngunguru,-35.6167,174.5,64.17,96,100,22.17,NZ,1635032447
iqaluit,63.7506,-68.5145,31.73,86,90,11.99,CA,1635032248
narsaq,60.9167,-46.05,34.02,59,68,4.63,GL,1635032399
kurilsk,45.2333,147.8833,48.51,67,70,17.0,RU,1635032450
ermelo,-26.5333,29.9833,55.26,63,0,10.6,ZA,1635032450
touros,-5.1989,-35.4608,81.5,79,28,13.8,BR,1635032451
morant bay,17.8815,-76.4093,83.82,83,54,8.52,JM,1635032452
san andres,12.5847,-81.7006,84.22,79,40,3.44,CO,1635032453
skjervoy,70.0311,20.9714,35.2,77,96,1.12,NO,1635032454
yabrud,33.9674,36.6574,46.53,66,0,1.34,SY,1635032455
kaitangata,-46.2817,169.8464,57.09,72,100,3.49,NZ,1635032288
chokurdakh,70.6333,147.9167,-2.22,98,100,6.51,RU,1635032265
bollnas,61.3482,16.3946,34.02,80,66,3.29,SE,1635032457
quatre cocos,-20.2078,57.7625,73.51,76,83,12.53,MU,1635032458
charcas,23.1333,-101.1167,70.5,41,62,8.03,MX,1635032459
kamaishi,39.2667,141.8833,41.95,58,3,5.14,JP,1635032383
aktas,49.7789,72.9608,42.75,59,11,14.9,KZ,1635032460
pimentel,-6.8367,-79.9342,62.89,77,20,18.41,PE,1635032461
mogocha,53.7333,119.7667,31.78,83,46,1.63,RU,1635032462
puerto suarez,-18.95,-57.8,99.41,29,10,13.6,BO,1635032463
elbistan,38.2059,37.1983,48.6,23,0,1.12,TR,1635032464
lahad datu,5.0268,118.327,79.05,79,99,0.65,MY,1635032465
balykshi,47.0667,51.8667,44.6,81,0,4.47,KZ,1635032466
hambantota,6.1241,81.1185,78.71,82,23,14.63,LK,1635032376
khatanga,71.9667,102.5,9.64,91,100,16.8,RU,1635032011
savannah bight,16.45,-85.85,84.25,79,67,21.23,HN,1635032468
kabinda,-6.1333,24.4833,70.27,73,90,1.97,CD,1635032469
gazojak,41.1875,61.4036,47.7,28,0,10.67,TM,1635032470
rorvik,64.8621,11.2373,42.62,81,100,16.69,NO,1635032471
westerland,54.9079,8.3033,51.93,87,90,12.66,DE,1635032472
cockburn town,21.4612,-71.1419,82.36,69,40,9.22,TC,1635032066
tarauaca,-8.1614,-70.7656,82.99,66,100,2.35,BR,1635032347
glenluce,54.8798,-4.8084,53.29,90,100,28.86,GB,1635032474
coihaique,-45.5752,-72.0662,46.35,57,75,8.05,CL,1635032475
airai,-8.9266,125.4092,73.44,46,34,1.32,TL,1635032283
rio grande,-32.035,-52.0986,58.95,91,100,10.83,BR,1635032377
disna,55.568,28.1971,38.05,84,85,11.25,BY,1635032355
nadym,65.5333,72.5167,27.32,86,60,16.98,RU,1635032477
tagudin,16.9355,120.4442,80.67,72,100,1.1,PH,1635032478
laguna,38.421,-121.4238,67.24,68,90,1.01,US,1635032288
loukhi,66.0764,33.0381,23.67,92,100,5.23,RU,1635032481
gubkinskiy,64.434,76.5026,34.23,91,100,17.81,RU,1635032482
sinegorye,62.0788,150.477,1.04,95,80,1.23,RU,1635032348
sorland,67.667,12.6934,42.49,79,99,15.5,NO,1635032343
great falls,47.5002,-111.3008,54.93,31,1,8.99,US,1635032407
caravelas,-17.7125,-39.2481,75.45,81,54,5.35,BR,1635032266
kavieng,-2.5744,150.7967,85.69,67,75,12.5,PG,1635032294
geilo,60.5333,8.2076,36.46,77,100,6.78,NO,1635032487
barranca,-10.75,-77.7667,61.95,86,15,10.29,PE,1635032488
tuensang,26.2833,94.8333,62.67,91,50,2.28,IN,1635032489
booue,-0.0921,11.9385,71.19,99,84,2.35,GA,1635032490
svetlogorsk,52.6333,29.7333,40.44,86,84,11.43,BY,1635032491
bathsheba,13.2167,-59.5167,83.01,69,40,20.71,BB,1635032375
santa rosa,14.3122,121.1114,78.85,91,100,7.25,PH,1635032492
margate,51.3813,1.3862,55.31,78,45,4.0,GB,1635032262
safaga,26.7292,33.9365,73.35,48,0,16.35,EG,1635032494
berbera,10.4396,45.0143,82.47,62,35,6.2,SO,1635032495
hamilton,39.1834,-84.5333,57.42,83,40,0.0,US,1635032247
tawang,27.5833,91.8667,43.83,82,54,3.71,IN,1635032496
vestmannaeyjar,63.4427,-20.2734,47.59,87,100,16.4,IS,1635032351
sarankhola,22.3082,89.7897,70.47,82,29,4.16,BD,1635032498
goderich,43.7501,-81.7165,45.21,87,94,3.44,CA,1635032340
harper,4.375,-7.7169,76.91,88,80,7.11,LR,1635032500
tete,-16.1564,33.5867,84.29,34,0,6.91,MZ,1635032501
half moon bay,37.4636,-122.4286,69.21,69,75,1.01,US,1635032271
gorontalo,0.5412,123.0595,83.08,71,99,1.57,ID,1635032371
iguape,-24.7081,-47.5553,68.22,95,100,5.77,BR,1635032503
kyzyl-suu,42.3414,78.0056,30.38,41,0,8.28,KG,1635032504
poum,-20.2333,164.0167,74.21,78,5,7.4,NC,1635032505
nhulunbuy,-12.2333,136.7667,88.41,55,12,10.36,AU,1635032253
pisco,-13.7,-76.2167,62.65,77,0,20.71,PE,1635032328
huambo,-12.7761,15.7392,63.3,77,66,4.43,AO,1635032507
el bagre,7.5927,-74.8086,75.99,97,100,1.03,CO,1635032507
alofi,-19.0595,-169.9187,76.89,57,88,18.41,NU,1635032508
miandoab,36.9694,46.1027,49.69,60,29,1.63,IR,1635032509
zhigansk,66.7697,123.3711,25.81,95,100,5.79,RU,1635032510
kokopo,-4.352,152.2633,85.89,62,15,7.92,PG,1635032363
badia polesine,45.0972,11.4916,56.75,80,7,1.99,IT,1635032512
nurota,40.5614,65.6886,48.29,33,0,6.38,UZ,1635032514
waipawa,-41.4122,175.5153,58.3,73,99,4.72,NZ,1635032514
beyneu,45.3167,55.2,49.96,29,1,11.16,KZ,1635032380
volksrust,-27.3654,29.8818,50.68,82,6,7.49,ZA,1635032516
pizarro,4.9533,-77.366,75.25,89,100,2.98,CO,1635032517
bonthe,7.5264,-12.505,77.9,86,100,1.14,SL,1635032518
tokur,53.1333,132.9,31.17,90,86,4.07,RU,1635032519
luwingu,-10.2621,29.9271,77.52,47,97,1.03,ZM,1635032366
lowestoft,52.4752,1.7516,54.16,82,96,11.59,GB,1635032521
aksu,41.1231,80.2644,45.75,31,7,5.93,CN,1635032522
pangnirtung,66.1451,-65.7125,24.13,86,98,5.82,CA,1635032051
ust-kuyga,70.0167,135.6,-0.4,98,100,1.59,RU,1635032523
killybegs,54.6333,-8.45,55.02,91,100,19.19,IE,1635032524
ramhormoz,31.28,49.6035,72.63,19,0,2.8,IR,1635032525
boueni,-12.9025,45.0761,78.78,81,80,5.01,YT,1635032526
parati,-23.2178,-44.7131,73.67,77,10,4.59,BR,1635032270
ulaangom,49.9811,92.0667,31.96,55,52,2.06,MN,1635032529
sainte-savine,48.2964,4.0464,41.68,93,0,0.0,FR,1635032529
teseney,15.11,36.6575,81.39,45,5,7.29,ER,1635032530
asosa,10.0667,34.5333,62.76,65,10,4.5,ET,1635032531
salinopolis,-0.6136,-47.3561,80.53,82,74,10.74,BR,1635032532
harqalah,36.0303,10.509,73.99,88,75,9.22,TN,1635032533
zhireken,52.8249,117.3076,30.09,81,28,2.57,RU,1635032534
nouadhibou,20.931,-17.0347,68.2,81,0,18.79,MR,1635032535
capoterra,39.1763,8.9718,68.54,78,0,6.91,IT,1635032536
pangody,65.85,74.4859,28.45,89,100,14.61,RU,1635032537
upata,8.0086,-62.3989,75.2,96,95,6.11,VE,1635032538
kargopol,61.5071,38.9456,30.65,90,100,7.54,RU,1635032539
luau,-10.7073,22.2247,69.35,78,81,3.38,AO,1635032540
vilyuysk,63.7553,121.6247,33.15,96,100,10.36,RU,1635032541
okha,53.5739,142.9478,36.41,92,98,19.33,RU,1635032378
alekseyevskaya,50.2896,42.1845,44.42,61,63,7.07,RU,1635032542
leningradskiy,69.3833,178.4167,10.81,93,100,8.59,RU,1635032543
marrakesh,31.6315,-8.0083,64.47,48,0,3.44,MA,1635032544
provideniya,64.3833,-173.3,25.21,77,100,8.41,RU,1635032545
llorente,11.4119,125.5458,80.01,86,100,1.66,PH,1635032546
okato,-39.2,173.8833,59.41,90,100,15.12,NZ,1635032547
palauig,15.435,119.9045,81.18,72,97,4.41,PH,1635032547
abonnema,4.7084,6.7931,73.38,94,92,3.15,NG,1635032548
soubre,5.7856,-6.6083,72.16,100,99,1.72,CI,1635032549
uray,60.1247,64.7758,38.25,78,43,13.58,RU,1635032550
chernyshevskiy,63.0128,112.4714,27.36,86,46,10.09,RU,1635032551
shimoda,34.6667,138.95,60.1,61,90,10.38,JP,1635032552
wuwei,37.9281,102.6414,42.85,66,65,1.12,CN,1635032553
maniwaki,46.3834,-75.966,41.54,70,98,1.14,CA,1635032553
northam,51.0333,-4.2167,56.01,77,100,21.12,GB,1635032554
angoche,-16.2325,39.9086,73.58,83,30,9.93,MZ,1635032555
big spring,32.2504,-101.4787,85.95,47,1,8.99,US,1635032557
bandarbeyla,9.4942,50.8122,76.59,83,22,4.7,SO,1635032558
fonte boa,-2.4959,-66.2662,80.73,73,82,2.01,BR,1635032559
maningrida,-12.0667,134.2667,88.93,56,32,9.06,AU,1635032560
dzilam gonzalez,21.2833,-88.9333,77.29,88,98,6.73,MX,1635032561
tilichiki,60.4667,166.1,12.09,86,99,8.39,RU,1635032562
broome,42.2506,-75.833,47.01,84,75,1.99,US,1635032563
mareeba,-17.0,145.4333,86.32,62,42,8.41,AU,1635032563
sal rei,16.1833,-22.9167,77.56,73,3,16.11,CV,1635032564
poli,-3.3333,36.8,60.67,75,94,3.0,TZ,1635032566
faya,18.3851,42.4509,57.31,27,3,4.38,SA,1635032567
constitucion,-35.3333,-72.4167,51.1,86,0,14.32,CL,1635032568
flinders,-34.5833,150.8552,69.8,64,70,7.0,AU,1635032569
port-gentil,-0.7193,8.7815,78.76,83,75,8.05,GA,1635032570
batticaloa,7.7102,81.6924,77.09,87,65,5.86,LK,1635032571
raga,8.4596,25.678,70.95,88,26,3.98,SS,1635032572
dingle,10.9995,122.6711,78.4,89,100,4.09,PH,1635032573
manhattan,40.7834,-73.9662,59.9,69,90,4.61,US,1635032528
auray,47.6703,-2.9918,55.74,75,62,8.48,FR,1635032575
mazara del vallo,37.6641,12.588,69.93,84,100,4.81,IT,1635032576
padang,-0.9492,100.3543,75.25,86,74,3.49,ID,1635032576
logan lake,50.4998,-120.8025,49.84,62,58,7.36,CA,1635032577
agua verde,22.9,-106.05,86.13,76,15,8.01,MX,1635032578
saint george,37.1041,-113.5841,74.62,26,1,5.01,US,1635032579
nelson bay,-32.7167,152.15,70.77,77,85,4.0,AU,1635032341
bintulu,3.1667,113.0333,75.61,94,20,5.99,MY,1635032581
alugan,12.2188,125.4808,80.98,82,100,7.58,PH,1635032582
vanimo,-2.6741,141.3028,84.94,64,49,7.29,PG,1635032583
udachnyy,66.4167,112.4,26.33,93,86,21.03,RU,1635032583
languyan,5.2618,120.0807,81.1,85,100,4.21,PH,1635032584
hailakandi,24.6833,92.5667,66.58,92,1,3.02,IN,1635032585
nefteyugansk,61.0998,72.6035,39.45,81,100,20.02,RU,1635032586
la cruz,23.9167,-106.9,81.41,78,52,6.6,MX,1635032587
ahipara,-35.1667,173.1667,65.44,80,61,8.19,NZ,1635032588
saint helens,53.45,-2.7333,53.49,74,75,4.0,GB,1635032589
rajmahal,25.05,87.8333,71.71,84,5,1.14,IN,1635032590
mehamn,71.0357,27.8492,35.89,66,100,22.39,NO,1635032591
narsipatnam,17.6667,82.6167,78.21,91,88,2.98,IN,1635032592
karratha,-20.7377,116.8463,87.26,25,94,7.29,AU,1635032593
ivdel,60.6911,60.4206,38.07,79,66,8.39,RU,1635032593
valparaiso,-33.0393,-71.6273,62.24,48,0,6.91,CL,1635032527
arrecife,28.963,-13.5477,71.67,64,40,6.91,ES,1635032339
okhotsk,59.3833,143.3,18.84,68,1,17.72,RU,1635032596
bonavista,48.6499,-53.1147,53.6,100,100,6.67,CA,1635032597
zagan,51.6176,15.3149,40.48,91,32,4.94,PL,1635032597
iwanai,42.9744,140.5089,56.01,67,70,11.45,JP,1635032598
ilulissat,69.2167,-51.1,21.22,79,40,17.27,GL,1635032600
mangan,27.5167,88.5333,65.95,77,57,2.75,IN,1635032601
longyan,25.1072,117.0225,58.41,97,100,3.15,CN,1635032602
grindavik,63.8424,-22.4338,46.87,100,90,9.22,IS,1635032603
kyra,49.5776,111.9753,32.49,57,30,3.29,RU,1635032604
coaldale,49.7167,-112.6185,54.55,50,75,17.27,CA,1635032605
lavrentiya,65.5833,-171.0,24.48,84,100,9.69,RU,1635032606
nioro,13.35,-15.75,78.4,59,81,5.28,GM,1635032607
kamareddi,18.3167,78.35,67.24,69,97,3.13,IN,1635032608
vihti,60.417,24.3197,32.79,89,23,5.01,FI,1635032609
tahoua,14.8888,5.2692,83.52,40,84,6.04,NE,1635032610
ambilobe,-13.2,49.05,73.33,89,12,2.86,MG,1635032611
bacolod,10.6667,122.95,80.73,80,100,1.95,PH,1635032612
muisne,0.6,-80.0333,76.03,85,94,9.46,EC,1635032613
pen,18.75,73.0833,78.84,87,46,4.43,IN,1635032615
port blair,11.6667,92.75,77.04,94,75,2.3,IN,1635032616
vardo,70.3705,31.1107,35.13,67,87,23.62,NO,1635032617
graaff-reinet,-32.2522,24.5308,48.92,74,74,4.99,ZA,1635032617
blythe,33.6103,-114.5964,85.03,22,65,14.94,US,1635032471
kamenka,51.3223,42.7678,41.02,71,9,7.36,RU,1635032619
paita,-5.0892,-81.1144,68.56,82,88,17.54,PE,1635032620
codrington,-38.2667,141.9667,52.11,67,56,14.97,AU,1635032359
aitape,-3.1374,142.3475,85.6,65,92,7.16,PG,1635032621
fort nelson,58.8053,-122.7002,49.59,57,20,5.75,CA,1635032622
callaway,30.153,-85.5699,75.13,70,1,1.01,US,1635032623
leua,48.2156,18.6071,40.5,76,0,4.18,SK,1635032624
hualmay,-11.0964,-77.6139,62.98,83,13,12.37,PE,1635032625
sakata,38.9167,139.855,50.18,87,75,3.44,JP,1635032626
norton,-17.8833,30.7,71.28,39,54,4.72,ZW,1635032627
ayan,56.45,138.1667,39.06,64,24,6.58,RU,1635032627
presidencia roque saenz pena,-26.7852,-60.4388,65.28,79,93,11.81,AR,1635032628
lasa,46.6166,10.7002,40.08,49,7,2.15,IT,1635032629
kloulklubed,7.0419,134.2556,82.9,70,47,1.99,PW,1635032630
shadrinsk,56.0852,63.6335,43.29,83,14,12.88,RU,1635032631
piacabucu,-10.4056,-36.4344,79.02,85,12,13.38,BR,1635032633
shelburne,44.0787,-80.2041,43.75,78,98,5.64,CA,1635032579
newport,51.5877,-2.9984,55.94,73,99,17.22,GB,1635032635
vercheres,45.7834,-73.3492,44.17,71,92,4.61,CA,1635032636
kingaroy,-26.5333,151.8333,86.05,28,55,12.66,AU,1635032637
homer,59.6425,-151.5483,48.04,76,40,5.75,US,1635032638
zomba,-15.386,35.3188,75.56,40,67,4.61,MW,1635032639
mapiripan,2.8892,-72.1256,75.78,92,99,4.47,CO,1635032640
vuyyuru,16.3667,80.85,73.81,95,100,4.18,IN,1635032641
port hardy,50.6996,-127.4199,51.98,76,75,3.44,CA,1635032643
usinsk,65.9939,57.5281,19.63,92,27,11.54,RU,1635032644
miri,4.4148,114.0089,75.34,100,20,2.3,MY,1635032645
kolomak,49.8399,35.3044,39.18,71,5,5.75,UA,1635032645
whitianga,-36.8333,175.7,61.02,95,100,12.93,NZ,1635032646
tazovskiy,67.4667,78.7,27.84,98,100,7.14,RU,1635032647
chihuahua,28.5,-106.0,81.43,20,0,5.84,MX,1635032648
yinchuan,38.4681,106.2731,48.87,51,0,0.69,CN,1635032649
kikwit,-5.041,18.8162,71.08,96,48,1.1,CD,1635032650
vlakhiotis,36.8667,22.7,67.17,64,8,2.89,GR,1635032651
slave lake,55.2834,-114.769,33.78,93,90,11.5,CA,1635032652
shvartsevskiy,54.0961,37.9917,39.43,71,55,14.45,RU,1635032653
vavoua,7.3819,-6.4778,70.86,99,87,2.46,CI,1635032655
